[
  {
    "cityCode": 110100,
    "cityName": "北京市",
    "lat": "39.904987",
    "lng": "116.405289",
    "provinceCode": 110000,
    "sort": "1"
  },
  {
    "cityCode": 120100,
    "cityName": "天津市",
    "lat": "39.125595",
    "lng": "117.190186",
    "provinceCode": 120000,
    "sort": "1"
  },
  {
    "cityCode": 130100,
    "cityName": "石家庄市",
    "lat": "38.045475",
    "lng": "114.502464",
    "provinceCode": 130000,
    "sort": "8"
  },
  {
    "cityCode": 130200,
    "cityName": "唐山市",
    "lat": "39.635113",
    "lng": "118.175392",
    "provinceCode": 130000,
    "sort": "9"
  },
  {
    "cityCode": 130300,
    "cityName": "秦皇岛市",
    "lat": "39.942532",
    "lng": "119.586578",
    "provinceCode": 130000,
    "sort": "7"
  },
  {
    "cityCode": 130400,
    "cityName": "邯郸市",
    "lat": "36.612274",
    "lng": "114.490685",
    "provinceCode": 130000,
    "sort": "4"
  },
  {
    "cityCode": 130500,
    "cityName": "邢台市",
    "lat": "37.068199",
    "lng": "114.50885",
    "provinceCode": 130000,
    "sort": "10"
  },
  {
    "cityCode": 130600,
    "cityName": "保定市",
    "lat": "38.867657",
    "lng": "115.48233",
    "provinceCode": 130000,
    "sort": "1"
  },
  {
    "cityCode": 130700,
    "cityName": "张家口市",
    "lat": "40.811901",
    "lng": "114.884094",
    "provinceCode": 130000,
    "sort": "11"
  },
  {
    "cityCode": 130800,
    "cityName": "承德市",
    "lat": "40.976204",
    "lng": "117.939156",
    "provinceCode": 130000,
    "sort": "3"
  },
  {
    "cityCode": 130900,
    "cityName": "沧州市",
    "lat": "38.310581",
    "lng": "116.85746",
    "provinceCode": 130000,
    "sort": "2"
  },
  {
    "cityCode": 131000,
    "cityName": "廊坊市",
    "lat": "39.523926",
    "lng": "116.704437",
    "provinceCode": 130000,
    "sort": "6"
  },
  {
    "cityCode": 131100,
    "cityName": "衡水市",
    "lat": "37.735096",
    "lng": "115.665993",
    "provinceCode": 130000,
    "sort": "5"
  },
  {
    "cityCode": 140100,
    "cityName": "太原市",
    "lat": "37.857014",
    "lng": "112.549248",
    "provinceCode": 140000,
    "sort": "8"
  },
  {
    "cityCode": 140200,
    "cityName": "大同市",
    "lat": "40.090309",
    "lng": "113.295258",
    "provinceCode": 140000,
    "sort": "2"
  },
  {
    "cityCode": 140300,
    "cityName": "阳泉市",
    "lat": "37.861187",
    "lng": "113.583282",
    "provinceCode": 140000,
    "sort": "10"
  },
  {
    "cityCode": 140400,
    "cityName": "长治市",
    "lat": "36.191113",
    "lng": "113.113556",
    "provinceCode": 140000,
    "sort": "1"
  },
  {
    "cityCode": 140500,
    "cityName": "晋城市",
    "lat": "35.497555",
    "lng": "112.851273",
    "provinceCode": 140000,
    "sort": "3"
  },
  {
    "cityCode": 140600,
    "cityName": "朔州市",
    "lat": "39.331261",
    "lng": "112.433388",
    "provinceCode": 140000,
    "sort": "7"
  },
  {
    "cityCode": 140700,
    "cityName": "晋中市",
    "lat": "37.696495",
    "lng": "112.736465",
    "provinceCode": 140000,
    "sort": "4"
  },
  {
    "cityCode": 140800,
    "cityName": "运城市",
    "lat": "35.022778",
    "lng": "111.00396",
    "provinceCode": 140000,
    "sort": "11"
  },
  {
    "cityCode": 140900,
    "cityName": "忻州市",
    "lat": "38.41769",
    "lng": "112.733536",
    "provinceCode": 140000,
    "sort": "9"
  },
  {
    "cityCode": 141000,
    "cityName": "临汾市",
    "lat": "36.084148",
    "lng": "111.517975",
    "provinceCode": 140000,
    "sort": "5"
  },
  {
    "cityCode": 141100,
    "cityName": "吕梁市",
    "lat": "37.524364",
    "lng": "111.134338",
    "provinceCode": 140000,
    "sort": "6"
  },
  {
    "cityCode": 150100,
    "cityName": "呼和浩特市",
    "lat": "40.81831",
    "lng": "111.670799",
    "provinceCode": 150000,
    "sort": "6"
  },
  {
    "cityCode": 150200,
    "cityName": "包头市",
    "lat": "40.658169",
    "lng": "109.840408",
    "provinceCode": 150000,
    "sort": "2"
  },
  {
    "cityCode": 150300,
    "cityName": "乌海市",
    "lat": "39.673733",
    "lng": "106.825562",
    "provinceCode": 150000,
    "sort": "9"
  },
  {
    "cityCode": 150400,
    "cityName": "赤峰市",
    "lat": "42.275318",
    "lng": "118.956802",
    "provinceCode": 150000,
    "sort": "4"
  },
  {
    "cityCode": 150500,
    "cityName": "通辽市",
    "lat": "43.617428",
    "lng": "122.263123",
    "provinceCode": 150000,
    "sort": "8"
  },
  {
    "cityCode": 150600,
    "cityName": "鄂尔多斯市",
    "lat": "39.817181",
    "lng": "109.990288",
    "provinceCode": 150000,
    "sort": "5"
  },
  {
    "cityCode": 150700,
    "cityName": "呼伦贝尔市",
    "lat": "49.215332",
    "lng": "119.758171",
    "provinceCode": 150000,
    "sort": "7"
  },
  {
    "cityCode": 150800,
    "cityName": "巴彦淖尔市",
    "lat": "40.757401",
    "lng": "107.416962",
    "provinceCode": 150000,
    "sort": "3"
  },
  {
    "cityCode": 150900,
    "cityName": "乌兰察布市",
    "lat": "41.034126",
    "lng": "113.11454",
    "provinceCode": 150000,
    "sort": "10"
  },
  {
    "cityCode": 152200,
    "cityName": "兴安盟",
    "lat": "46.076267",
    "lng": "122.07032",
    "provinceCode": 150000,
    "sort": "12"
  },
  {
    "cityCode": 152500,
    "cityName": "锡林郭勒盟",
    "lat": "43.944019",
    "lng": "116.090996",
    "provinceCode": 150000,
    "sort": "11"
  },
  {
    "cityCode": 152900,
    "cityName": "阿拉善盟",
    "lat": "38.844814",
    "lng": "105.706421",
    "provinceCode": 150000,
    "sort": "1"
  },
  {
    "cityCode": 210100,
    "cityName": "沈阳市",
    "lat": "41.796768",
    "lng": "123.429092",
    "provinceCode": 210000,
    "sort": "12"
  },
  {
    "cityCode": 210200,
    "cityName": "大连市",
    "lat": "38.914589",
    "lng": "121.618622",
    "provinceCode": 210000,
    "sort": "4"
  },
  {
    "cityCode": 210300,
    "cityName": "鞍山市",
    "lat": "41.110626",
    "lng": "122.995628",
    "provinceCode": 210000,
    "sort": "1"
  },
  {
    "cityCode": 210400,
    "cityName": "抚顺市",
    "lat": "41.875957",
    "lng": "123.921112",
    "provinceCode": 210000,
    "sort": "6"
  },
  {
    "cityCode": 210500,
    "cityName": "本溪市",
    "lat": "41.297909",
    "lng": "123.770515",
    "provinceCode": 210000,
    "sort": "2"
  },
  {
    "cityCode": 210600,
    "cityName": "丹东市",
    "lat": "40.124294",
    "lng": "124.383041",
    "provinceCode": 210000,
    "sort": "5"
  },
  {
    "cityCode": 210700,
    "cityName": "锦州市",
    "lat": "41.11927",
    "lng": "121.135742",
    "provinceCode": 210000,
    "sort": "9"
  },
  {
    "cityCode": 210800,
    "cityName": "营口市",
    "lat": "40.667431",
    "lng": "122.235153",
    "provinceCode": 210000,
    "sort": "14"
  },
  {
    "cityCode": 210900,
    "cityName": "阜新市",
    "lat": "42.011795",
    "lng": "121.648964",
    "provinceCode": 210000,
    "sort": "7"
  },
  {
    "cityCode": 211000,
    "cityName": "辽阳市",
    "lat": "41.269402",
    "lng": "123.181519",
    "provinceCode": 210000,
    "sort": "10"
  },
  {
    "cityCode": 211100,
    "cityName": "盘锦市",
    "lat": "41.124485",
    "lng": "122.069572",
    "provinceCode": 210000,
    "sort": "11"
  },
  {
    "cityCode": 211200,
    "cityName": "铁岭市",
    "lat": "42.290585",
    "lng": "123.844276",
    "provinceCode": 210000,
    "sort": "13"
  },
  {
    "cityCode": 211300,
    "cityName": "朝阳市",
    "lat": "41.576759",
    "lng": "120.45118",
    "provinceCode": 210000,
    "sort": "3"
  },
  {
    "cityCode": 211400,
    "cityName": "葫芦岛市",
    "lat": "40.755573",
    "lng": "120.856392",
    "provinceCode": 210000,
    "sort": "8"
  },
  {
    "cityCode": 220100,
    "cityName": "长春市",
    "lat": "43.886841",
    "lng": "125.324501",
    "provinceCode": 220000,
    "sort": "3"
  },
  {
    "cityCode": 220200,
    "cityName": "吉林市",
    "lat": "43.843578",
    "lng": "126.553017",
    "provinceCode": 220000,
    "sort": "4"
  },
  {
    "cityCode": 220300,
    "cityName": "四平市",
    "lat": "43.170345",
    "lng": "124.370789",
    "provinceCode": 220000,
    "sort": "6"
  },
  {
    "cityCode": 220400,
    "cityName": "辽源市",
    "lat": "42.902691",
    "lng": "125.145348",
    "provinceCode": 220000,
    "sort": "5"
  },
  {
    "cityCode": 220500,
    "cityName": "通化市",
    "lat": "41.721176",
    "lng": "125.936501",
    "provinceCode": 220000,
    "sort": "8"
  },
  {
    "cityCode": 220600,
    "cityName": "白山市",
    "lat": "41.942505",
    "lng": "126.427841",
    "provinceCode": 220000,
    "sort": "2"
  },
  {
    "cityCode": 220700,
    "cityName": "松原市",
    "lat": "45.118244",
    "lng": "124.823608",
    "provinceCode": 220000,
    "sort": "7"
  },
  {
    "cityCode": 220800,
    "cityName": "白城市",
    "lat": "45.619026",
    "lng": "122.84111",
    "provinceCode": 220000,
    "sort": "1"
  },
  {
    "cityCode": 222400,
    "cityName": "延边朝鲜族自治州",
    "lat": "42.904823",
    "lng": "129.513229",
    "provinceCode": 220000,
    "sort": "9"
  },
  {
    "cityCode": 230100,
    "cityName": "哈尔滨市",
    "lat": "45.756966",
    "lng": "126.642464",
    "provinceCode": 230000,
    "sort": "3"
  },
  {
    "cityCode": 230200,
    "cityName": "齐齐哈尔市",
    "lat": "47.342079",
    "lng": "123.957916",
    "provinceCode": 230000,
    "sort": "9"
  },
  {
    "cityCode": 230300,
    "cityName": "鸡西市",
    "lat": "45.300045",
    "lng": "130.975967",
    "provinceCode": 230000,
    "sort": "7"
  },
  {
    "cityCode": 230400,
    "cityName": "鹤岗市",
    "lat": "47.332085",
    "lng": "130.277481",
    "provinceCode": 230000,
    "sort": "4"
  },
  {
    "cityCode": 230500,
    "cityName": "双鸭山市",
    "lat": "46.64344",
    "lng": "131.157303",
    "provinceCode": 230000,
    "sort": "11"
  },
  {
    "cityCode": 230600,
    "cityName": "大庆市",
    "lat": "46.590733",
    "lng": "125.112717",
    "provinceCode": 230000,
    "sort": "1"
  },
  {
    "cityCode": 230700,
    "cityName": "伊春市",
    "lat": "47.724773",
    "lng": "128.899399",
    "provinceCode": 230000,
    "sort": "13"
  },
  {
    "cityCode": 230800,
    "cityName": "佳木斯市",
    "lat": "46.809605",
    "lng": "130.361633",
    "provinceCode": 230000,
    "sort": "6"
  },
  {
    "cityCode": 230900,
    "cityName": "七台河市",
    "lat": "45.771267",
    "lng": "131.015579",
    "provinceCode": 230000,
    "sort": "10"
  },
  {
    "cityCode": 231000,
    "cityName": "牡丹江市",
    "lat": "44.582962",
    "lng": "129.618607",
    "provinceCode": 230000,
    "sort": "8"
  },
  {
    "cityCode": 231100,
    "cityName": "黑河市",
    "lat": "50.249584",
    "lng": "127.499023",
    "provinceCode": 230000,
    "sort": "5"
  },
  {
    "cityCode": 231200,
    "cityName": "绥化市",
    "lat": "46.637394",
    "lng": "126.992928",
    "provinceCode": 230000,
    "sort": "12"
  },
  {
    "cityCode": 232700,
    "cityName": "大兴安岭地区",
    "lat": "52.335262",
    "lng": "124.711525",
    "provinceCode": 230000,
    "sort": "2"
  },
  {
    "cityCode": 310100,
    "cityName": "上海市",
    "lat": "31.231707",
    "lng": "121.472641",
    "provinceCode": 310000,
    "sort": "1"
  },
  {
    "cityCode": 320100,
    "cityName": "南京市",
    "lat": "32.041546",
    "lng": "118.76741",
    "provinceCode": 320000,
    "sort": "4"
  },
  {
    "cityCode": 320200,
    "cityName": "无锡市",
    "lat": "31.57473",
    "lng": "120.301666",
    "provinceCode": 320000,
    "sort": "9"
  },
  {
    "cityCode": 320300,
    "cityName": "徐州市",
    "lat": "34.261791",
    "lng": "117.184814",
    "provinceCode": 320000,
    "sort": "10"
  },
  {
    "cityCode": 320400,
    "cityName": "常州市",
    "lat": "31.772753",
    "lng": "119.946976",
    "provinceCode": 320000,
    "sort": "1"
  },
  {
    "cityCode": 320500,
    "cityName": "苏州市",
    "lat": "31.299379",
    "lng": "120.619583",
    "provinceCode": 320000,
    "sort": "7"
  },
  {
    "cityCode": 320600,
    "cityName": "南通市",
    "lat": "32.016212",
    "lng": "120.864609",
    "provinceCode": 320000,
    "sort": "5"
  },
  {
    "cityCode": 320700,
    "cityName": "连云港市",
    "lat": "34.600018",
    "lng": "119.178818",
    "provinceCode": 320000,
    "sort": "3"
  },
  {
    "cityCode": 320800,
    "cityName": "淮安市",
    "lat": "33.597507",
    "lng": "119.021263",
    "provinceCode": 320000,
    "sort": "2"
  },
  {
    "cityCode": 320900,
    "cityName": "盐城市",
    "lat": "33.377632",
    "lng": "120.139999",
    "provinceCode": 320000,
    "sort": "11"
  },
  {
    "cityCode": 321000,
    "cityName": "扬州市",
    "lat": "32.393158",
    "lng": "119.421005",
    "provinceCode": 320000,
    "sort": "12"
  },
  {
    "cityCode": 321100,
    "cityName": "镇江市",
    "lat": "32.204403",
    "lng": "119.452751",
    "provinceCode": 320000,
    "sort": "13"
  },
  {
    "cityCode": 321200,
    "cityName": "泰州市",
    "lat": "32.484882",
    "lng": "119.915176",
    "provinceCode": 320000,
    "sort": "8"
  },
  {
    "cityCode": 321300,
    "cityName": "宿迁市",
    "lat": "33.963009",
    "lng": "118.275162",
    "provinceCode": 320000,
    "sort": "6"
  },
  {
    "cityCode": 330100,
    "cityName": "杭州市",
    "lat": "30.287458",
    "lng": "120.15358",
    "provinceCode": 330000,
    "sort": "1"
  },
  {
    "cityCode": 330200,
    "cityName": "宁波市",
    "lat": "29.868387",
    "lng": "121.549789",
    "provinceCode": 330000,
    "sort": "6"
  },
  {
    "cityCode": 330300,
    "cityName": "温州市",
    "lat": "28.000574",
    "lng": "120.672112",
    "provinceCode": 330000,
    "sort": "10"
  },
  {
    "cityCode": 330400,
    "cityName": "嘉兴市",
    "lat": "30.762653",
    "lng": "120.750862",
    "provinceCode": 330000,
    "sort": "3"
  },
  {
    "cityCode": 330500,
    "cityName": "湖州市",
    "lat": "30.867199",
    "lng": "120.102402",
    "provinceCode": 330000,
    "sort": "2"
  },
  {
    "cityCode": 330600,
    "cityName": "绍兴市",
    "lat": "29.997116",
    "lng": "120.582115",
    "provinceCode": 330000,
    "sort": "8"
  },
  {
    "cityCode": 330700,
    "cityName": "金华市",
    "lat": "29.089523",
    "lng": "119.649506",
    "provinceCode": 330000,
    "sort": "4"
  },
  {
    "cityCode": 330800,
    "cityName": "衢州市",
    "lat": "28.941708",
    "lng": "118.872627",
    "provinceCode": 330000,
    "sort": "7"
  },
  {
    "cityCode": 330900,
    "cityName": "舟山市",
    "lat": "30.016027",
    "lng": "122.106865",
    "provinceCode": 330000,
    "sort": "11"
  },
  {
    "cityCode": 331000,
    "cityName": "台州市",
    "lat": "28.661379",
    "lng": "121.428596",
    "provinceCode": 330000,
    "sort": "9"
  },
  {
    "cityCode": 331100,
    "cityName": "丽水市",
    "lat": "28.451994",
    "lng": "119.921783",
    "provinceCode": 330000,
    "sort": "5"
  },
  {
    "cityCode": 340100,
    "cityName": "合肥市",
    "lat": "31.861191",
    "lng": "117.283043",
    "provinceCode": 340000,
    "sort": "7"
  },
  {
    "cityCode": 340200,
    "cityName": "芜湖市",
    "lat": "31.326319",
    "lng": "118.37645",
    "provinceCode": 340000,
    "sort": "15"
  },
  {
    "cityCode": 340300,
    "cityName": "蚌埠市",
    "lat": "32.939667",
    "lng": "117.363228",
    "provinceCode": 340000,
    "sort": "2"
  },
  {
    "cityCode": 340400,
    "cityName": "淮南市",
    "lat": "32.647575",
    "lng": "117.018326",
    "provinceCode": 340000,
    "sort": "9"
  },
  {
    "cityCode": 340500,
    "cityName": "马鞍山市",
    "lat": "31.689362",
    "lng": "118.507904",
    "provinceCode": 340000,
    "sort": "12"
  },
  {
    "cityCode": 340600,
    "cityName": "淮北市",
    "lat": "33.971706",
    "lng": "116.794662",
    "provinceCode": 340000,
    "sort": "8"
  },
  {
    "cityCode": 340700,
    "cityName": "铜陵市",
    "lat": "30.929935",
    "lng": "117.816574",
    "provinceCode": 340000,
    "sort": "14"
  },
  {
    "cityCode": 340800,
    "cityName": "安庆市",
    "lat": "30.508829",
    "lng": "117.043549",
    "provinceCode": 340000,
    "sort": "1"
  },
  {
    "cityCode": 341000,
    "cityName": "黄山市",
    "lat": "29.709238",
    "lng": "118.317322",
    "provinceCode": 340000,
    "sort": "10"
  },
  {
    "cityCode": 341100,
    "cityName": "滁州市",
    "lat": "32.303627",
    "lng": "118.316261",
    "provinceCode": 340000,
    "sort": "5"
  },
  {
    "cityCode": 341200,
    "cityName": "阜阳市",
    "lat": "32.896969",
    "lng": "115.819733",
    "provinceCode": 340000,
    "sort": "6"
  },
  {
    "cityCode": 341300,
    "cityName": "宿州市",
    "lat": "33.633892",
    "lng": "116.984085",
    "provinceCode": 340000,
    "sort": "13"
  },
  {
    "cityCode": 341500,
    "cityName": "六安市",
    "lat": "31.75289",
    "lng": "116.507675",
    "provinceCode": 340000,
    "sort": "11"
  },
  {
    "cityCode": 341600,
    "cityName": "亳州市",
    "lat": "33.869339",
    "lng": "115.782936",
    "provinceCode": 340000,
    "sort": "3"
  },
  {
    "cityCode": 341700,
    "cityName": "池州市",
    "lat": "30.656036",
    "lng": "117.489159",
    "provinceCode": 340000,
    "sort": "4"
  },
  {
    "cityCode": 341800,
    "cityName": "宣城市",
    "lat": "30.945667",
    "lng": "118.757996",
    "provinceCode": 340000,
    "sort": "16"
  },
  {
    "cityCode": 350100,
    "cityName": "福州市",
    "lat": "26.075302",
    "lng": "119.306236",
    "provinceCode": 350000,
    "sort": "1"
  },
  {
    "cityCode": 350200,
    "cityName": "厦门市",
    "lat": "24.490475",
    "lng": "118.110222",
    "provinceCode": 350000,
    "sort": "8"
  },
  {
    "cityCode": 350300,
    "cityName": "莆田市",
    "lat": "25.431011",
    "lng": "119.007561",
    "provinceCode": 350000,
    "sort": "5"
  },
  {
    "cityCode": 350400,
    "cityName": "三明市",
    "lat": "26.265444",
    "lng": "117.635002",
    "provinceCode": 350000,
    "sort": "7"
  },
  {
    "cityCode": 350500,
    "cityName": "泉州市",
    "lat": "24.908854",
    "lng": "118.589424",
    "provinceCode": 350000,
    "sort": "6"
  },
  {
    "cityCode": 350600,
    "cityName": "漳州市",
    "lat": "24.510897",
    "lng": "117.661804",
    "provinceCode": 350000,
    "sort": "9"
  },
  {
    "cityCode": 350700,
    "cityName": "南平市",
    "lat": "26.635628",
    "lng": "118.178459",
    "provinceCode": 350000,
    "sort": "3"
  },
  {
    "cityCode": 350800,
    "cityName": "龙岩市",
    "lat": "25.091602",
    "lng": "117.029778",
    "provinceCode": 350000,
    "sort": "2"
  },
  {
    "cityCode": 350900,
    "cityName": "宁德市",
    "lat": "26.659241",
    "lng": "119.527084",
    "provinceCode": 350000,
    "sort": "4"
  },
  {
    "cityCode": 360100,
    "cityName": "南昌市",
    "lat": "28.676493",
    "lng": "115.892151",
    "provinceCode": 360000,
    "sort": "6"
  },
  {
    "cityCode": 360200,
    "cityName": "景德镇市",
    "lat": "29.292561",
    "lng": "117.214661",
    "provinceCode": 360000,
    "sort": "4"
  },
  {
    "cityCode": 360300,
    "cityName": "萍乡市",
    "lat": "27.622946",
    "lng": "113.852188",
    "provinceCode": 360000,
    "sort": "7"
  },
  {
    "cityCode": 360400,
    "cityName": "九江市",
    "lat": "29.712034",
    "lng": "115.992813",
    "provinceCode": 360000,
    "sort": "5"
  },
  {
    "cityCode": 360500,
    "cityName": "新余市",
    "lat": "27.810835",
    "lng": "114.930832",
    "provinceCode": 360000,
    "sort": "9"
  },
  {
    "cityCode": 360600,
    "cityName": "鹰潭市",
    "lat": "28.238638",
    "lng": "117.033836",
    "provinceCode": 360000,
    "sort": "11"
  },
  {
    "cityCode": 360700,
    "cityName": "赣州市",
    "lat": "25.850969",
    "lng": "114.940277",
    "provinceCode": 360000,
    "sort": "2"
  },
  {
    "cityCode": 360800,
    "cityName": "吉安市",
    "lat": "27.111698",
    "lng": "114.986374",
    "provinceCode": 360000,
    "sort": "3"
  },
  {
    "cityCode": 360900,
    "cityName": "宜春市",
    "lat": "27.8043",
    "lng": "114.391136",
    "provinceCode": 360000,
    "sort": "10"
  },
  {
    "cityCode": 361000,
    "cityName": "抚州市",
    "lat": "27.98385",
    "lng": "116.358353",
    "provinceCode": 360000,
    "sort": "1"
  },
  {
    "cityCode": 361100,
    "cityName": "上饶市",
    "lat": "28.44442",
    "lng": "117.971184",
    "provinceCode": 360000,
    "sort": "8"
  },
  {
    "cityCode": 370100,
    "cityName": "济南市",
    "lat": "36.675808",
    "lng": "117.000923",
    "provinceCode": 370000,
    "sort": "5"
  },
  {
    "cityCode": 370200,
    "cityName": "青岛市",
    "lat": "36.082981",
    "lng": "120.355171",
    "provinceCode": 370000,
    "sort": "10"
  },
  {
    "cityCode": 370300,
    "cityName": "淄博市",
    "lat": "36.814938",
    "lng": "118.047646",
    "provinceCode": 370000,
    "sort": "17"
  },
  {
    "cityCode": 370400,
    "cityName": "枣庄市",
    "lat": "34.856422",
    "lng": "117.557961",
    "provinceCode": 370000,
    "sort": "16"
  },
  {
    "cityCode": 370500,
    "cityName": "东营市",
    "lat": "37.434563",
    "lng": "118.664711",
    "provinceCode": 370000,
    "sort": "3"
  },
  {
    "cityCode": 370600,
    "cityName": "烟台市",
    "lat": "37.539295",
    "lng": "121.39138",
    "provinceCode": 370000,
    "sort": "15"
  },
  {
    "cityCode": 370700,
    "cityName": "潍坊市",
    "lat": "36.709251",
    "lng": "119.107079",
    "provinceCode": 370000,
    "sort": "13"
  },
  {
    "cityCode": 370800,
    "cityName": "济宁市",
    "lat": "35.415394",
    "lng": "116.587242",
    "provinceCode": 370000,
    "sort": "6"
  },
  {
    "cityCode": 370900,
    "cityName": "泰安市",
    "lat": "36.194969",
    "lng": "117.129066",
    "provinceCode": 370000,
    "sort": "12"
  },
  {
    "cityCode": 371000,
    "cityName": "威海市",
    "lat": "37.509689",
    "lng": "122.116394",
    "provinceCode": 370000,
    "sort": "14"
  },
  {
    "cityCode": 371100,
    "cityName": "日照市",
    "lat": "35.428589",
    "lng": "119.461205",
    "provinceCode": 370000,
    "sort": "11"
  },
  {
    "cityCode": 371200,
    "cityName": "莱芜市",
    "lat": "36.214397",
    "lng": "117.677734",
    "provinceCode": 370000,
    "sort": "7"
  },
  {
    "cityCode": 371300,
    "cityName": "临沂市",
    "lat": "35.065281",
    "lng": "118.326447",
    "provinceCode": 370000,
    "sort": "9"
  },
  {
    "cityCode": 371400,
    "cityName": "德州市",
    "lat": "37.453968",
    "lng": "116.307426",
    "provinceCode": 370000,
    "sort": "2"
  },
  {
    "cityCode": 371500,
    "cityName": "聊城市",
    "lat": "36.456013",
    "lng": "115.98037",
    "provinceCode": 370000,
    "sort": "8"
  },
  {
    "cityCode": 371600,
    "cityName": "滨州市",
    "lat": "37.383541",
    "lng": "118.016975",
    "provinceCode": 370000,
    "sort": "1"
  },
  {
    "cityCode": 371700,
    "cityName": "菏泽市",
    "lat": "35.246532",
    "lng": "115.469383",
    "provinceCode": 370000,
    "sort": "4"
  },
  {
    "cityCode": 410100,
    "cityName": "郑州市",
    "lat": "34.757977",
    "lng": "113.665413",
    "provinceCode": 410000,
    "sort": "16"
  },
  {
    "cityCode": 410200,
    "cityName": "开封市",
    "lat": "34.79705",
    "lng": "114.341446",
    "provinceCode": 410000,
    "sort": "5"
  },
  {
    "cityCode": 410300,
    "cityName": "洛阳市",
    "lat": "34.66304",
    "lng": "112.434471",
    "provinceCode": 410000,
    "sort": "7"
  },
  {
    "cityCode": 410400,
    "cityName": "平顶山市",
    "lat": "33.735241",
    "lng": "113.307716",
    "provinceCode": 410000,
    "sort": "9"
  },
  {
    "cityCode": 410500,
    "cityName": "安阳市",
    "lat": "36.103443",
    "lng": "114.352486",
    "provinceCode": 410000,
    "sort": "1"
  },
  {
    "cityCode": 410600,
    "cityName": "鹤壁市",
    "lat": "35.748238",
    "lng": "114.295441",
    "provinceCode": 410000,
    "sort": "2"
  },
  {
    "cityCode": 410700,
    "cityName": "新乡市",
    "lat": "35.302616",
    "lng": "113.883987",
    "provinceCode": 410000,
    "sort": "14"
  },
  {
    "cityCode": 410800,
    "cityName": "焦作市",
    "lat": "35.23904",
    "lng": "113.238266",
    "provinceCode": 410000,
    "sort": "3"
  },
  {
    "cityCode": 410881,
    "cityName": "济源市",
    "lat": "35.090378",
    "lng": "112.59005",
    "provinceCode": 410000,
    "sort": "4"
  },
  {
    "cityCode": 410900,
    "cityName": "濮阳市",
    "lat": "35.768234",
    "lng": "115.041298",
    "provinceCode": 410000,
    "sort": "10"
  },
  {
    "cityCode": 411000,
    "cityName": "许昌市",
    "lat": "34.022957",
    "lng": "113.826065",
    "provinceCode": 410000,
    "sort": "15"
  },
  {
    "cityCode": 411100,
    "cityName": "漯河市",
    "lat": "33.575855",
    "lng": "114.026405",
    "provinceCode": 410000,
    "sort": "6"
  },
  {
    "cityCode": 411200,
    "cityName": "三门峡市",
    "lat": "34.777336",
    "lng": "111.194099",
    "provinceCode": 410000,
    "sort": "11"
  },
  {
    "cityCode": 411300,
    "cityName": "南阳市",
    "lat": "32.999081",
    "lng": "112.540916",
    "provinceCode": 410000,
    "sort": "8"
  },
  {
    "cityCode": 411400,
    "cityName": "商丘市",
    "lat": "34.437054",
    "lng": "115.650497",
    "provinceCode": 410000,
    "sort": "12"
  },
  {
    "cityCode": 411500,
    "cityName": "信阳市",
    "lat": "32.123276",
    "lng": "114.075027",
    "provinceCode": 410000,
    "sort": "13"
  },
  {
    "cityCode": 411600,
    "cityName": "周口市",
    "lat": "33.620358",
    "lng": "114.649651",
    "provinceCode": 410000,
    "sort": "17"
  },
  {
    "cityCode": 411700,
    "cityName": "驻马店市",
    "lat": "32.980167",
    "lng": "114.024734",
    "provinceCode": 410000,
    "sort": "18"
  },
  {
    "cityCode": 420100,
    "cityName": "武汉市",
    "lat": "30.584354",
    "lng": "114.298569",
    "provinceCode": 420000,
    "sort": "12"
  },
  {
    "cityCode": 420200,
    "cityName": "黄石市",
    "lat": "30.220074",
    "lng": "115.077049",
    "provinceCode": 420000,
    "sort": "4"
  },
  {
    "cityCode": 420300,
    "cityName": "十堰市",
    "lat": "32.646908",
    "lng": "110.787918",
    "provinceCode": 420000,
    "sort": "9"
  },
  {
    "cityCode": 420500,
    "cityName": "宜昌市",
    "lat": "30.702637",
    "lng": "111.29084",
    "provinceCode": 420000,
    "sort": "17"
  },
  {
    "cityCode": 420600,
    "cityName": "襄阳市",
    "lat": "32.042427",
    "lng": "112.14415",
    "provinceCode": 420000,
    "sort": "13"
  },
  {
    "cityCode": 420700,
    "cityName": "鄂州市",
    "lat": "30.396536",
    "lng": "114.890594",
    "provinceCode": 420000,
    "sort": "2"
  },
  {
    "cityCode": 420800,
    "cityName": "荆门市",
    "lat": "31.035419",
    "lng": "112.204254",
    "provinceCode": 420000,
    "sort": "5"
  },
  {
    "cityCode": 420900,
    "cityName": "孝感市",
    "lat": "30.926422",
    "lng": "113.926659",
    "provinceCode": 420000,
    "sort": "16"
  },
  {
    "cityCode": 421000,
    "cityName": "荆州市",
    "lat": "30.326857",
    "lng": "112.238129",
    "provinceCode": 420000,
    "sort": "6"
  },
  {
    "cityCode": 421100,
    "cityName": "黄冈市",
    "lat": "30.447712",
    "lng": "114.879364",
    "provinceCode": 420000,
    "sort": "3"
  },
  {
    "cityCode": 421200,
    "cityName": "咸宁市",
    "lat": "29.832798",
    "lng": "114.328964",
    "provinceCode": 420000,
    "sort": "14"
  },
  {
    "cityCode": 421300,
    "cityName": "随州市",
    "lat": "31.717497",
    "lng": "113.373772",
    "provinceCode": 420000,
    "sort": "10"
  },
  {
    "cityCode": 422800,
    "cityName": "恩施土家族苗族自治州",
    "lat": "30.283113",
    "lng": "109.486992",
    "provinceCode": 420000,
    "sort": "1"
  },
  {
    "cityCode": 429004,
    "cityName": "仙桃市",
    "lat": "30.364952",
    "lng": "113.453972",
    "provinceCode": 420000,
    "sort": "15"
  },
  {
    "cityCode": 429005,
    "cityName": "潜江市",
    "lat": "30.421215",
    "lng": "112.896866",
    "provinceCode": 420000,
    "sort": "7"
  },
  {
    "cityCode": 429006,
    "cityName": "天门市",
    "lat": "30.653061",
    "lng": "113.165863",
    "provinceCode": 420000,
    "sort": "11"
  },
  {
    "cityCode": 429021,
    "cityName": "神农架林区",
    "lat": "30.584354",
    "lng": "114.298569",
    "provinceCode": 420000,
    "sort": "8"
  },
  {
    "cityCode": 430100,
    "cityName": "长沙市",
    "lat": "28.19409",
    "lng": "112.982277",
    "provinceCode": 430000,
    "sort": "2"
  },
  {
    "cityCode": 430200,
    "cityName": "株洲市",
    "lat": "27.835806",
    "lng": "113.151733",
    "provinceCode": 430000,
    "sort": "14"
  },
  {
    "cityCode": 430300,
    "cityName": "湘潭市",
    "lat": "27.829729",
    "lng": "112.944054",
    "provinceCode": 430000,
    "sort": "8"
  },
  {
    "cityCode": 430400,
    "cityName": "衡阳市",
    "lat": "26.900358",
    "lng": "112.607697",
    "provinceCode": 430000,
    "sort": "4"
  },
  {
    "cityCode": 430500,
    "cityName": "邵阳市",
    "lat": "27.237843",
    "lng": "111.469231",
    "provinceCode": 430000,
    "sort": "7"
  },
  {
    "cityCode": 430600,
    "cityName": "岳阳市",
    "lat": "29.370291",
    "lng": "113.132858",
    "provinceCode": 430000,
    "sort": "12"
  },
  {
    "cityCode": 430700,
    "cityName": "常德市",
    "lat": "29.040224",
    "lng": "111.691345",
    "provinceCode": 430000,
    "sort": "1"
  },
  {
    "cityCode": 430800,
    "cityName": "张家界市",
    "lat": "29.127401",
    "lng": "110.479919",
    "provinceCode": 430000,
    "sort": "13"
  },
  {
    "cityCode": 430900,
    "cityName": "益阳市",
    "lat": "28.570066",
    "lng": "112.355042",
    "provinceCode": 430000,
    "sort": "10"
  },
  {
    "cityCode": 431000,
    "cityName": "郴州市",
    "lat": "25.793589",
    "lng": "113.032066",
    "provinceCode": 430000,
    "sort": "3"
  },
  {
    "cityCode": 431100,
    "cityName": "永州市",
    "lat": "26.434517",
    "lng": "111.608017",
    "provinceCode": 430000,
    "sort": "11"
  },
  {
    "cityCode": 431200,
    "cityName": "怀化市",
    "lat": "27.550081",
    "lng": "109.978241",
    "provinceCode": 430000,
    "sort": "5"
  },
  {
    "cityCode": 431300,
    "cityName": "娄底市",
    "lat": "27.728136",
    "lng": "112.008499",
    "provinceCode": 430000,
    "sort": "6"
  },
  {
    "cityCode": 433100,
    "cityName": "湘西土家族苗族自治州",
    "lat": "28.314297",
    "lng": "109.739738",
    "provinceCode": 430000,
    "sort": "9"
  },
  {
    "cityCode": 440100,
    "cityName": "广州市",
    "lat": "23.125177",
    "lng": "113.28064",
    "provinceCode": 440000,
    "sort": "5"
  },
  {
    "cityCode": 440200,
    "cityName": "韶关市",
    "lat": "24.801323",
    "lng": "113.591545",
    "provinceCode": 440000,
    "sort": "15"
  },
  {
    "cityCode": 440300,
    "cityName": "深圳市",
    "lat": "22.547001",
    "lng": "114.085945",
    "provinceCode": 440000,
    "sort": "16"
  },
  {
    "cityCode": 440400,
    "cityName": "珠海市",
    "lat": "22.224979",
    "lng": "113.553986",
    "provinceCode": 440000,
    "sort": "22"
  },
  {
    "cityCode": 440500,
    "cityName": "汕头市",
    "lat": "23.371019",
    "lng": "116.708466",
    "provinceCode": 440000,
    "sort": "13"
  },
  {
    "cityCode": 440600,
    "cityName": "佛山市",
    "lat": "23.028763",
    "lng": "113.122719",
    "provinceCode": 440000,
    "sort": "4"
  },
  {
    "cityCode": 440700,
    "cityName": "江门市",
    "lat": "22.590431",
    "lng": "113.09494",
    "provinceCode": 440000,
    "sort": "8"
  },
  {
    "cityCode": 440800,
    "cityName": "湛江市",
    "lat": "21.274899",
    "lng": "110.364975",
    "provinceCode": 440000,
    "sort": "19"
  },
  {
    "cityCode": 440900,
    "cityName": "茂名市",
    "lat": "21.659752",
    "lng": "110.919228",
    "provinceCode": 440000,
    "sort": "10"
  },
  {
    "cityCode": 441200,
    "cityName": "肇庆市",
    "lat": "23.051546",
    "lng": "112.472527",
    "provinceCode": 440000,
    "sort": "20"
  },
  {
    "cityCode": 441300,
    "cityName": "惠州市",
    "lat": "23.079405",
    "lng": "114.412598",
    "provinceCode": 440000,
    "sort": "7"
  },
  {
    "cityCode": 441400,
    "cityName": "梅州市",
    "lat": "24.299112",
    "lng": "116.117584",
    "provinceCode": 440000,
    "sort": "11"
  },
  {
    "cityCode": 441500,
    "cityName": "汕尾市",
    "lat": "22.774485",
    "lng": "115.364235",
    "provinceCode": 440000,
    "sort": "14"
  },
  {
    "cityCode": 441600,
    "cityName": "河源市",
    "lat": "23.746265",
    "lng": "114.6978",
    "provinceCode": 440000,
    "sort": "6"
  },
  {
    "cityCode": 441700,
    "cityName": "阳江市",
    "lat": "21.859222",
    "lng": "111.975105",
    "provinceCode": 440000,
    "sort": "17"
  },
  {
    "cityCode": 441800,
    "cityName": "清远市",
    "lat": "23.685022",
    "lng": "113.051224",
    "provinceCode": 440000,
    "sort": "12"
  },
  {
    "cityCode": 441900,
    "cityName": "东莞市",
    "lat": "23.046238",
    "lng": "113.746262",
    "provinceCode": 440000,
    "sort": "2"
  },
  {
    "cityCode": 442000,
    "cityName": "中山市",
    "lat": "22.521112",
    "lng": "113.382393",
    "provinceCode": 440000,
    "sort": "21"
  },
  {
    "cityCode": 442101,
    "cityName": "东沙群岛",
    "lat": "21.810463",
    "lng": "112.552948",
    "provinceCode": 440000,
    "sort": "3"
  },
  {
    "cityCode": 445100,
    "cityName": "潮州市",
    "lat": "23.661701",
    "lng": "116.632301",
    "provinceCode": 440000,
    "sort": "1"
  },
  {
    "cityCode": 445200,
    "cityName": "揭阳市",
    "lat": "23.543777",
    "lng": "116.355736",
    "provinceCode": 440000,
    "sort": "9"
  },
  {
    "cityCode": 445300,
    "cityName": "云浮市",
    "lat": "22.929802",
    "lng": "112.044441",
    "provinceCode": 440000,
    "sort": "18"
  },
  {
    "cityCode": 450100,
    "cityName": "南宁市",
    "lat": "22.82402",
    "lng": "108.320007",
    "provinceCode": 450000,
    "sort": "11"
  },
  {
    "cityCode": 450200,
    "cityName": "柳州市",
    "lat": "24.314617",
    "lng": "109.411705",
    "provinceCode": 450000,
    "sort": "10"
  },
  {
    "cityCode": 450300,
    "cityName": "桂林市",
    "lat": "25.274216",
    "lng": "110.299118",
    "provinceCode": 450000,
    "sort": "6"
  },
  {
    "cityCode": 450400,
    "cityName": "梧州市",
    "lat": "23.474804",
    "lng": "111.297607",
    "provinceCode": 450000,
    "sort": "13"
  },
  {
    "cityCode": 450500,
    "cityName": "北海市",
    "lat": "21.473343",
    "lng": "109.119255",
    "provinceCode": 450000,
    "sort": "1"
  },
  {
    "cityCode": 450600,
    "cityName": "防城港市",
    "lat": "21.614632",
    "lng": "108.345474",
    "provinceCode": 450000,
    "sort": "4"
  },
  {
    "cityCode": 450700,
    "cityName": "钦州市",
    "lat": "21.967127",
    "lng": "108.624176",
    "provinceCode": 450000,
    "sort": "12"
  },
  {
    "cityCode": 450800,
    "cityName": "贵港市",
    "lat": "23.093599",
    "lng": "109.602142",
    "provinceCode": 450000,
    "sort": "5"
  },
  {
    "cityCode": 450900,
    "cityName": "玉林市",
    "lat": "22.631359",
    "lng": "110.154396",
    "provinceCode": 450000,
    "sort": "14"
  },
  {
    "cityCode": 451000,
    "cityName": "百色市",
    "lat": "23.897741",
    "lng": "106.616287",
    "provinceCode": 450000,
    "sort": "2"
  },
  {
    "cityCode": 451100,
    "cityName": "贺州市",
    "lat": "24.414141",
    "lng": "111.552055",
    "provinceCode": 450000,
    "sort": "8"
  },
  {
    "cityCode": 451200,
    "cityName": "河池市",
    "lat": "24.695898",
    "lng": "108.062103",
    "provinceCode": 450000,
    "sort": "7"
  },
  {
    "cityCode": 451300,
    "cityName": "来宾市",
    "lat": "23.733767",
    "lng": "109.229774",
    "provinceCode": 450000,
    "sort": "9"
  },
  {
    "cityCode": 451400,
    "cityName": "崇左市",
    "lat": "22.404108",
    "lng": "107.353928",
    "provinceCode": 450000,
    "sort": "3"
  },
  {
    "cityCode": 460100,
    "cityName": "海口市",
    "lat": "20.031971",
    "lng": "110.331192",
    "provinceCode": 460000,
    "sort": "8"
  },
  {
    "cityCode": 460200,
    "cityName": "三亚市",
    "lat": "18.247871",
    "lng": "109.50827",
    "provinceCode": 460000,
    "sort": "15"
  },
  {
    "cityCode": 460300,
    "cityName": "三沙市",
    "lat": "16.831039",
    "lng": "112.348824",
    "provinceCode": 460000,
    "sort": "14"
  },
  {
    "cityCode": 469001,
    "cityName": "五指山市",
    "lat": "18.77692",
    "lng": "109.516663",
    "provinceCode": 460000,
    "sort": "19"
  },
  {
    "cityCode": 469002,
    "cityName": "琼海市",
    "lat": "19.246012",
    "lng": "110.466782",
    "provinceCode": 460000,
    "sort": "12"
  },
  {
    "cityCode": 469003,
    "cityName": "儋州市",
    "lat": "19.517487",
    "lng": "109.576782",
    "provinceCode": 460000,
    "sort": "5"
  },
  {
    "cityCode": 469005,
    "cityName": "文昌市",
    "lat": "19.612986",
    "lng": "110.753975",
    "provinceCode": 460000,
    "sort": "18"
  },
  {
    "cityCode": 469006,
    "cityName": "万宁市",
    "lat": "18.796215",
    "lng": "110.388794",
    "provinceCode": 460000,
    "sort": "17"
  },
  {
    "cityCode": 469007,
    "cityName": "东方市",
    "lat": "19.10198",
    "lng": "108.653786",
    "provinceCode": 460000,
    "sort": "7"
  },
  {
    "cityCode": 469025,
    "cityName": "定安县",
    "lat": "19.684965",
    "lng": "110.349236",
    "provinceCode": 460000,
    "sort": "6"
  },
  {
    "cityCode": 469026,
    "cityName": "屯昌县",
    "lat": "19.362917",
    "lng": "110.102776",
    "provinceCode": 460000,
    "sort": "16"
  },
  {
    "cityCode": 469027,
    "cityName": "澄迈县",
    "lat": "19.737095",
    "lng": "110.007149",
    "provinceCode": 460000,
    "sort": "4"
  },
  {
    "cityCode": 469028,
    "cityName": "临高县",
    "lat": "19.908293",
    "lng": "109.687698",
    "provinceCode": 460000,
    "sort": "10"
  },
  {
    "cityCode": 469030,
    "cityName": "白沙黎族自治县",
    "lat": "19.224585",
    "lng": "109.452606",
    "provinceCode": 460000,
    "sort": "1"
  },
  {
    "cityCode": 469031,
    "cityName": "昌江黎族自治县",
    "lat": "19.260967",
    "lng": "109.053352",
    "provinceCode": 460000,
    "sort": "3"
  },
  {
    "cityCode": 469033,
    "cityName": "乐东黎族自治县",
    "lat": "18.74758",
    "lng": "109.175446",
    "provinceCode": 460000,
    "sort": "9"
  },
  {
    "cityCode": 469034,
    "cityName": "陵水黎族自治县",
    "lat": "18.505007",
    "lng": "110.037216",
    "provinceCode": 460000,
    "sort": "11"
  },
  {
    "cityCode": 469035,
    "cityName": "保亭黎族苗族自治县",
    "lat": "18.636372",
    "lng": "109.702454",
    "provinceCode": 460000,
    "sort": "2"
  },
  {
    "cityCode": 469036,
    "cityName": "琼中黎族苗族自治县",
    "lat": "19.03557",
    "lng": "109.839996",
    "provinceCode": 460000,
    "sort": "13"
  },
  {
    "cityCode": 500100,
    "cityName": "重庆市",
    "lat": "29.533155",
    "lng": "106.504959",
    "provinceCode": 500000,
    "sort": "1"
  },
  {
    "cityCode": 510100,
    "cityName": "成都市",
    "lat": "30.659462",
    "lng": "104.065735",
    "provinceCode": 510000,
    "sort": "3"
  },
  {
    "cityCode": 510300,
    "cityName": "自贡市",
    "lat": "29.352764",
    "lng": "104.773445",
    "provinceCode": 510000,
    "sort": "20"
  },
  {
    "cityCode": 510400,
    "cityName": "攀枝花市",
    "lat": "26.580446",
    "lng": "101.716003",
    "provinceCode": 510000,
    "sort": "16"
  },
  {
    "cityCode": 510500,
    "cityName": "泸州市",
    "lat": "28.889137",
    "lng": "105.443352",
    "provinceCode": 510000,
    "sort": "11"
  },
  {
    "cityCode": 510600,
    "cityName": "德阳市",
    "lat": "31.127991",
    "lng": "104.398651",
    "provinceCode": 510000,
    "sort": "5"
  },
  {
    "cityCode": 510700,
    "cityName": "绵阳市",
    "lat": "31.46402",
    "lng": "104.741722",
    "provinceCode": 510000,
    "sort": "13"
  },
  {
    "cityCode": 510800,
    "cityName": "广元市",
    "lat": "32.433666",
    "lng": "105.829758",
    "provinceCode": 510000,
    "sort": "8"
  },
  {
    "cityCode": 510900,
    "cityName": "遂宁市",
    "lat": "30.513311",
    "lng": "105.571327",
    "provinceCode": 510000,
    "sort": "17"
  },
  {
    "cityCode": 511000,
    "cityName": "内江市",
    "lat": "29.58708",
    "lng": "105.066139",
    "provinceCode": 510000,
    "sort": "15"
  },
  {
    "cityCode": 511100,
    "cityName": "乐山市",
    "lat": "29.582024",
    "lng": "103.761261",
    "provinceCode": 510000,
    "sort": "9"
  },
  {
    "cityCode": 511300,
    "cityName": "南充市",
    "lat": "30.79528",
    "lng": "106.082977",
    "provinceCode": 510000,
    "sort": "14"
  },
  {
    "cityCode": 511400,
    "cityName": "眉山市",
    "lat": "30.048319",
    "lng": "103.831787",
    "provinceCode": 510000,
    "sort": "12"
  },
  {
    "cityCode": 511500,
    "cityName": "宜宾市",
    "lat": "28.760189",
    "lng": "104.630821",
    "provinceCode": 510000,
    "sort": "19"
  },
  {
    "cityCode": 511600,
    "cityName": "广安市",
    "lat": "30.456398",
    "lng": "106.633369",
    "provinceCode": 510000,
    "sort": "7"
  },
  {
    "cityCode": 511700,
    "cityName": "达州市",
    "lat": "31.209484",
    "lng": "107.502258",
    "provinceCode": 510000,
    "sort": "4"
  },
  {
    "cityCode": 511800,
    "cityName": "雅安市",
    "lat": "29.987722",
    "lng": "103.00103",
    "provinceCode": 510000,
    "sort": "18"
  },
  {
    "cityCode": 511900,
    "cityName": "巴中市",
    "lat": "31.858809",
    "lng": "106.75367",
    "provinceCode": 510000,
    "sort": "2"
  },
  {
    "cityCode": 512000,
    "cityName": "资阳市",
    "lat": "30.122211",
    "lng": "104.641914",
    "provinceCode": 510000,
    "sort": "21"
  },
  {
    "cityCode": 513200,
    "cityName": "阿坝藏族羌族自治州",
    "lat": "31.899792",
    "lng": "102.221375",
    "provinceCode": 510000,
    "sort": "1"
  },
  {
    "cityCode": 513300,
    "cityName": "甘孜藏族自治州",
    "lat": "30.050663",
    "lng": "101.963814",
    "provinceCode": 510000,
    "sort": "6"
  },
  {
    "cityCode": 513400,
    "cityName": "凉山彝族自治州",
    "lat": "27.886763",
    "lng": "102.258743",
    "provinceCode": 510000,
    "sort": "10"
  },
  {
    "cityCode": 520100,
    "cityName": "贵阳市",
    "lat": "26.578342",
    "lng": "106.713478",
    "provinceCode": 520000,
    "sort": "3"
  },
  {
    "cityCode": 520200,
    "cityName": "六盘水市",
    "lat": "26.584642",
    "lng": "104.846741",
    "provinceCode": 520000,
    "sort": "4"
  },
  {
    "cityCode": 520300,
    "cityName": "遵义市",
    "lat": "27.706627",
    "lng": "106.937263",
    "provinceCode": 520000,
    "sort": "9"
  },
  {
    "cityCode": 520400,
    "cityName": "安顺市",
    "lat": "26.245544",
    "lng": "105.93219",
    "provinceCode": 520000,
    "sort": "1"
  },
  {
    "cityCode": 522200,
    "cityName": "铜仁市",
    "lat": "27.718346",
    "lng": "109.191551",
    "provinceCode": 520000,
    "sort": "8"
  },
  {
    "cityCode": 522300,
    "cityName": "黔西南布依族苗族自治州",
    "lat": "25.08812",
    "lng": "104.897972",
    "provinceCode": 520000,
    "sort": "7"
  },
  {
    "cityCode": 522400,
    "cityName": "毕节市",
    "lat": "27.301693",
    "lng": "105.285011",
    "provinceCode": 520000,
    "sort": "2"
  },
  {
    "cityCode": 522600,
    "cityName": "黔东南苗族侗族自治州",
    "lat": "26.583351",
    "lng": "107.977486",
    "provinceCode": 520000,
    "sort": "5"
  },
  {
    "cityCode": 522700,
    "cityName": "黔南布依族苗族自治州",
    "lat": "26.258219",
    "lng": "107.517159",
    "provinceCode": 520000,
    "sort": "6"
  },
  {
    "cityCode": 530100,
    "cityName": "昆明市",
    "lat": "25.040609",
    "lng": "102.71225",
    "provinceCode": 530000,
    "sort": "7"
  },
  {
    "cityCode": 530300,
    "cityName": "曲靖市",
    "lat": "25.501556",
    "lng": "103.797852",
    "provinceCode": 530000,
    "sort": "12"
  },
  {
    "cityCode": 530400,
    "cityName": "玉溪市",
    "lat": "24.35046",
    "lng": "102.543907",
    "provinceCode": 530000,
    "sort": "15"
  },
  {
    "cityCode": 530500,
    "cityName": "保山市",
    "lat": "25.111801",
    "lng": "99.16713",
    "provinceCode": 530000,
    "sort": "1"
  },
  {
    "cityCode": 530600,
    "cityName": "昭通市",
    "lat": "27.337",
    "lng": "103.717216",
    "provinceCode": 530000,
    "sort": "16"
  },
  {
    "cityCode": 530700,
    "cityName": "丽江市",
    "lat": "26.872108",
    "lng": "100.233025",
    "provinceCode": 530000,
    "sort": "8"
  },
  {
    "cityCode": 530800,
    "cityName": "普洱市",
    "lat": "22.777321",
    "lng": "100.972343",
    "provinceCode": 530000,
    "sort": "11"
  },
  {
    "cityCode": 530900,
    "cityName": "临沧市",
    "lat": "23.886566",
    "lng": "100.086967",
    "provinceCode": 530000,
    "sort": "9"
  },
  {
    "cityCode": 532300,
    "cityName": "楚雄彝族自治州",
    "lat": "25.041988",
    "lng": "101.546043",
    "provinceCode": 530000,
    "sort": "2"
  },
  {
    "cityCode": 532500,
    "cityName": "红河哈尼族彝族自治州",
    "lat": "23.366776",
    "lng": "103.384186",
    "provinceCode": 530000,
    "sort": "6"
  },
  {
    "cityCode": 532600,
    "cityName": "文山壮族苗族自治州",
    "lat": "23.369511",
    "lng": "104.244011",
    "provinceCode": 530000,
    "sort": "13"
  },
  {
    "cityCode": 532800,
    "cityName": "西双版纳傣族自治州",
    "lat": "22.001724",
    "lng": "100.797943",
    "provinceCode": 530000,
    "sort": "14"
  },
  {
    "cityCode": 532900,
    "cityName": "大理白族自治州",
    "lat": "25.589449",
    "lng": "100.22567",
    "provinceCode": 530000,
    "sort": "3"
  },
  {
    "cityCode": 533100,
    "cityName": "德宏傣族景颇族自治州",
    "lat": "24.436693",
    "lng": "98.578362",
    "provinceCode": 530000,
    "sort": "4"
  },
  {
    "cityCode": 533300,
    "cityName": "怒江傈僳族自治州",
    "lat": "25.850948",
    "lng": "98.854301",
    "provinceCode": 530000,
    "sort": "10"
  },
  {
    "cityCode": 533400,
    "cityName": "迪庆藏族自治州",
    "lat": "27.826853",
    "lng": "99.706467",
    "provinceCode": 530000,
    "sort": "5"
  },
  {
    "cityCode": 540100,
    "cityName": "拉萨市",
    "lat": "29.66036",
    "lng": "91.13221",
    "provinceCode": 540000,
    "sort": "3"
  },
  {
    "cityCode": 542100,
    "cityName": "昌都地区",
    "lat": "31.136875",
    "lng": "97.178452",
    "provinceCode": 540000,
    "sort": "2"
  },
  {
    "cityCode": 542200,
    "cityName": "山南地区",
    "lat": "29.236023",
    "lng": "91.766525",
    "provinceCode": 540000,
    "sort": "7"
  },
  {
    "cityCode": 542300,
    "cityName": "日喀则地区",
    "lat": "29.267519",
    "lng": "88.885147",
    "provinceCode": 540000,
    "sort": "6"
  },
  {
    "cityCode": 542400,
    "cityName": "那曲地区",
    "lat": "31.476004",
    "lng": "92.060211",
    "provinceCode": 540000,
    "sort": "5"
  },
  {
    "cityCode": 542500,
    "cityName": "阿里地区",
    "lat": "32.503185",
    "lng": "80.105499",
    "provinceCode": 540000,
    "sort": "1"
  },
  {
    "cityCode": 542600,
    "cityName": "林芝地区",
    "lat": "29.654694",
    "lng": "94.36235",
    "provinceCode": 540000,
    "sort": "4"
  },
  {
    "cityCode": 610100,
    "cityName": "西安市",
    "lat": "34.263161",
    "lng": "108.948021",
    "provinceCode": 610000,
    "sort": "7"
  },
  {
    "cityCode": 610200,
    "cityName": "铜川市",
    "lat": "34.91658",
    "lng": "108.979607",
    "provinceCode": 610000,
    "sort": "5"
  },
  {
    "cityCode": 610300,
    "cityName": "宝鸡市",
    "lat": "34.369316",
    "lng": "107.144867",
    "provinceCode": 610000,
    "sort": "2"
  },
  {
    "cityCode": 610400,
    "cityName": "咸阳市",
    "lat": "34.333439",
    "lng": "108.705116",
    "provinceCode": 610000,
    "sort": "8"
  },
  {
    "cityCode": 610500,
    "cityName": "渭南市",
    "lat": "34.499382",
    "lng": "109.502884",
    "provinceCode": 610000,
    "sort": "6"
  },
  {
    "cityCode": 610600,
    "cityName": "延安市",
    "lat": "36.596539",
    "lng": "109.490807",
    "provinceCode": 610000,
    "sort": "9"
  },
  {
    "cityCode": 610700,
    "cityName": "汉中市",
    "lat": "33.077667",
    "lng": "107.028618",
    "provinceCode": 610000,
    "sort": "3"
  },
  {
    "cityCode": 610800,
    "cityName": "榆林市",
    "lat": "38.290161",
    "lng": "109.741196",
    "provinceCode": 610000,
    "sort": "10"
  },
  {
    "cityCode": 610900,
    "cityName": "安康市",
    "lat": "32.6903",
    "lng": "109.029274",
    "provinceCode": 610000,
    "sort": "1"
  },
  {
    "cityCode": 611000,
    "cityName": "商洛市",
    "lat": "33.86832",
    "lng": "109.939774",
    "provinceCode": 610000,
    "sort": "4"
  },
  {
    "cityCode": 620100,
    "cityName": "兰州市",
    "lat": "36.058041",
    "lng": "103.823555",
    "provinceCode": 620000,
    "sort": "7"
  },
  {
    "cityCode": 620200,
    "cityName": "嘉峪关市",
    "lat": "39.78653",
    "lng": "98.277306",
    "provinceCode": 620000,
    "sort": "4"
  },
  {
    "cityCode": 620300,
    "cityName": "金昌市",
    "lat": "38.514236",
    "lng": "102.187889",
    "provinceCode": 620000,
    "sort": "5"
  },
  {
    "cityCode": 620400,
    "cityName": "白银市",
    "lat": "36.545681",
    "lng": "104.173607",
    "provinceCode": 620000,
    "sort": "1"
  },
  {
    "cityCode": 620500,
    "cityName": "天水市",
    "lat": "34.578529",
    "lng": "105.724998",
    "provinceCode": 620000,
    "sort": "12"
  },
  {
    "cityCode": 620600,
    "cityName": "武威市",
    "lat": "37.929996",
    "lng": "102.634697",
    "provinceCode": 620000,
    "sort": "13"
  },
  {
    "cityCode": 620700,
    "cityName": "张掖市",
    "lat": "38.932896",
    "lng": "100.455475",
    "provinceCode": 620000,
    "sort": "14"
  },
  {
    "cityCode": 620800,
    "cityName": "平凉市",
    "lat": "35.542789",
    "lng": "106.684692",
    "provinceCode": 620000,
    "sort": "10"
  },
  {
    "cityCode": 620900,
    "cityName": "酒泉市",
    "lat": "39.744022",
    "lng": "98.510796",
    "provinceCode": 620000,
    "sort": "6"
  },
  {
    "cityCode": 621000,
    "cityName": "庆阳市",
    "lat": "35.734219",
    "lng": "107.638374",
    "provinceCode": 620000,
    "sort": "11"
  },
  {
    "cityCode": 621100,
    "cityName": "定西市",
    "lat": "35.579578",
    "lng": "104.626297",
    "provinceCode": 620000,
    "sort": "2"
  },
  {
    "cityCode": 621200,
    "cityName": "陇南市",
    "lat": "33.388599",
    "lng": "104.929382",
    "provinceCode": 620000,
    "sort": "9"
  },
  {
    "cityCode": 622900,
    "cityName": "临夏回族自治州",
    "lat": "35.599445",
    "lng": "103.212006",
    "provinceCode": 620000,
    "sort": "8"
  },
  {
    "cityCode": 623000,
    "cityName": "甘南藏族自治州",
    "lat": "34.986355",
    "lng": "102.911011",
    "provinceCode": 620000,
    "sort": "3"
  },
  {
    "cityCode": 630100,
    "cityName": "西宁市",
    "lat": "36.623177",
    "lng": "101.778915",
    "provinceCode": 630000,
    "sort": "7"
  },
  {
    "cityCode": 632100,
    "cityName": "海东市",
    "lat": "36.502914",
    "lng": "102.103271",
    "provinceCode": 630000,
    "sort": "3"
  },
  {
    "cityCode": 632200,
    "cityName": "海北藏族自治州",
    "lat": "36.959435",
    "lng": "100.901062",
    "provinceCode": 630000,
    "sort": "2"
  },
  {
    "cityCode": 632300,
    "cityName": "黄南藏族自治州",
    "lat": "35.517742",
    "lng": "102.019989",
    "provinceCode": 630000,
    "sort": "6"
  },
  {
    "cityCode": 632500,
    "cityName": "海南藏族自治州",
    "lat": "36.280354",
    "lng": "100.619545",
    "provinceCode": 630000,
    "sort": "4"
  },
  {
    "cityCode": 632600,
    "cityName": "果洛藏族自治州",
    "lat": "34.473598",
    "lng": "100.242142",
    "provinceCode": 630000,
    "sort": "1"
  },
  {
    "cityCode": 632700,
    "cityName": "玉树藏族自治州",
    "lat": "33.004047",
    "lng": "97.008522",
    "provinceCode": 630000,
    "sort": "8"
  },
  {
    "cityCode": 632800,
    "cityName": "海西蒙古族藏族自治州",
    "lat": "37.374664",
    "lng": "97.370789",
    "provinceCode": 630000,
    "sort": "5"
  },
  {
    "cityCode": 640100,
    "cityName": "银川市",
    "lat": "38.46637",
    "lng": "106.278175",
    "provinceCode": 640000,
    "sort": "4"
  },
  {
    "cityCode": 640200,
    "cityName": "石嘴山市",
    "lat": "39.013329",
    "lng": "106.376175",
    "provinceCode": 640000,
    "sort": "2"
  },
  {
    "cityCode": 640300,
    "cityName": "吴忠市",
    "lat": "37.986164",
    "lng": "106.199409",
    "provinceCode": 640000,
    "sort": "3"
  },
  {
    "cityCode": 640400,
    "cityName": "固原市",
    "lat": "36.004562",
    "lng": "106.28524",
    "provinceCode": 640000,
    "sort": "1"
  },
  {
    "cityCode": 640500,
    "cityName": "中卫市",
    "lat": "37.51495",
    "lng": "105.189568",
    "provinceCode": 640000,
    "sort": "5"
  },
  {
    "cityCode": 650100,
    "cityName": "乌鲁木齐市",
    "lat": "43.792816",
    "lng": "87.617729",
    "provinceCode": 650000,
    "sort": "17"
  },
  {
    "cityCode": 650200,
    "cityName": "克拉玛依市",
    "lat": "45.595886",
    "lng": "84.873947",
    "provinceCode": 650000,
    "sort": "10"
  },
  {
    "cityCode": 652100,
    "cityName": "吐鲁番地区",
    "lat": "42.947613",
    "lng": "89.184074",
    "provinceCode": 650000,
    "sort": "14"
  },
  {
    "cityCode": 652200,
    "cityName": "哈密地区",
    "lat": "42.833248",
    "lng": "93.513161",
    "provinceCode": 650000,
    "sort": "7"
  },
  {
    "cityCode": 652300,
    "cityName": "昌吉回族自治州",
    "lat": "44.014576",
    "lng": "87.304008",
    "provinceCode": 650000,
    "sort": "6"
  },
  {
    "cityCode": 652700,
    "cityName": "博尔塔拉蒙古自治州",
    "lat": "44.903259",
    "lng": "82.074776",
    "provinceCode": 650000,
    "sort": "5"
  },
  {
    "cityCode": 652800,
    "cityName": "巴音郭楞蒙古自治州",
    "lat": "41.768551",
    "lng": "86.15097",
    "provinceCode": 650000,
    "sort": "4"
  },
  {
    "cityCode": 652900,
    "cityName": "阿克苏地区",
    "lat": "41.170712",
    "lng": "80.265068",
    "provinceCode": 650000,
    "sort": "1"
  },
  {
    "cityCode": 653000,
    "cityName": "克孜勒苏柯尔克孜自治州",
    "lat": "39.713432",
    "lng": "76.172829",
    "provinceCode": 650000,
    "sort": "11"
  },
  {
    "cityCode": 653100,
    "cityName": "喀什地区",
    "lat": "39.467663",
    "lng": "75.989136",
    "provinceCode": 650000,
    "sort": "9"
  },
  {
    "cityCode": 653200,
    "cityName": "和田地区",
    "lat": "37.110687",
    "lng": "79.925331",
    "provinceCode": 650000,
    "sort": "8"
  },
  {
    "cityCode": 654000,
    "cityName": "伊犁哈萨克自治州",
    "lat": "43.92186",
    "lng": "81.317947",
    "provinceCode": 650000,
    "sort": "18"
  },
  {
    "cityCode": 654200,
    "cityName": "塔城地区",
    "lat": "46.7463",
    "lng": "82.985733",
    "provinceCode": 650000,
    "sort": "13"
  },
  {
    "cityCode": 654300,
    "cityName": "阿勒泰地区",
    "lat": "47.848392",
    "lng": "88.139633",
    "provinceCode": 650000,
    "sort": "3"
  },
  {
    "cityCode": 659001,
    "cityName": "石河子市",
    "lat": "44.305885",
    "lng": "86.041077",
    "provinceCode": 650000,
    "sort": "12"
  },
  {
    "cityCode": 659002,
    "cityName": "阿拉尔市",
    "lat": "40.541916",
    "lng": "81.285881",
    "provinceCode": 650000,
    "sort": "2"
  },
  {
    "cityCode": 659003,
    "cityName": "图木舒克市",
    "lat": "39.867317",
    "lng": "79.07798",
    "provinceCode": 650000,
    "sort": "15"
  },
  {
    "cityCode": 659004,
    "cityName": "五家渠市",
    "lat": "44.1674",
    "lng": "87.526886",
    "provinceCode": 650000,
    "sort": "16"
  },
  {
    "cityCode": 710100,
    "cityName": "台北市",
    "lat": "25.044333",
    "lng": "121.509064",
    "provinceCode": 710000,
    "sort": "12"
  },
  {
    "cityCode": 710200,
    "cityName": "高雄市",
    "lat": "25.044333",
    "lng": "121.509064",
    "provinceCode": 710000,
    "sort": "1"
  },
  {
    "cityCode": 710300,
    "cityName": "台南市",
    "lat": "25.044333",
    "lng": "121.509064",
    "provinceCode": 710000,
    "sort": "14"
  },
  {
    "cityCode": 710400,
    "cityName": "台中市",
    "lat": "25.044333",
    "lng": "121.509064",
    "provinceCode": 710000,
    "sort": "15"
  },
  {
    "cityCode": 710500,
    "cityName": "金门县",
    "lat": "25.044333",
    "lng": "121.509064",
    "provinceCode": 710000,
    "sort": "6"
  },
  {
    "cityCode": 710600,
    "cityName": "南投县",
    "lat": "25.044333",
    "lng": "121.509064",
    "provinceCode": 710000,
    "sort": "9"
  },
  {
    "cityCode": 710700,
    "cityName": "基隆市",
    "lat": "25.044333",
    "lng": "121.509064",
    "provinceCode": 710000,
    "sort": "5"
  },
  {
    "cityCode": 710800,
    "cityName": "新竹市",
    "lat": "25.044333",
    "lng": "121.509064",
    "provinceCode": 710000,
    "sort": "18"
  },
  {
    "cityCode": 710900,
    "cityName": "嘉义市",
    "lat": "25.044333",
    "lng": "121.509064",
    "provinceCode": 710000,
    "sort": "3"
  },
  {
    "cityCode": 711100,
    "cityName": "新北市",
    "lat": "25.044333",
    "lng": "121.509064",
    "provinceCode": 710000,
    "sort": "17"
  },
  {
    "cityCode": 711200,
    "cityName": "宜兰县",
    "lat": "25.044333",
    "lng": "121.509064",
    "provinceCode": 710000,
    "sort": "20"
  },
  {
    "cityCode": 711300,
    "cityName": "新竹县",
    "lat": "25.044333",
    "lng": "121.509064",
    "provinceCode": 710000,
    "sort": "19"
  },
  {
    "cityCode": 711400,
    "cityName": "桃园县",
    "lat": "25.044333",
    "lng": "121.509064",
    "provinceCode": 710000,
    "sort": "16"
  },
  {
    "cityCode": 711500,
    "cityName": "苗栗县",
    "lat": "25.044333",
    "lng": "121.509064",
    "provinceCode": 710000,
    "sort": "8"
  },
  {
    "cityCode": 711700,
    "cityName": "彰化县",
    "lat": "25.044333",
    "lng": "121.509064",
    "provinceCode": 710000,
    "sort": "22"
  },
  {
    "cityCode": 711900,
    "cityName": "嘉义县",
    "lat": "25.044333",
    "lng": "121.509064",
    "provinceCode": 710000,
    "sort": "4"
  },
  {
    "cityCode": 712100,
    "cityName": "云林县",
    "lat": "25.044333",
    "lng": "121.509064",
    "provinceCode": 710000,
    "sort": "21"
  },
  {
    "cityCode": 712400,
    "cityName": "屏东县",
    "lat": "25.044333",
    "lng": "121.509064",
    "provinceCode": 710000,
    "sort": "11"
  },
  {
    "cityCode": 712500,
    "cityName": "台东县",
    "lat": "25.044333",
    "lng": "121.509064",
    "provinceCode": 710000,
    "sort": "13"
  },
  {
    "cityCode": 712600,
    "cityName": "花莲县",
    "lat": "25.044333",
    "lng": "121.509064",
    "provinceCode": 710000,
    "sort": "2"
  },
  {
    "cityCode": 712700,
    "cityName": "澎湖县",
    "lat": "25.044333",
    "lng": "121.509064",
    "provinceCode": 710000,
    "sort": "10"
  },
  {
    "cityCode": 712800,
    "cityName": "连江县",
    "lat": "25.044333",
    "lng": "121.509064",
    "provinceCode": 710000,
    "sort": "7"
  },
  {
    "cityCode": 810100,
    "cityName": "香港岛",
    "lat": "22.320047",
    "lng": "114.173355",
    "provinceCode": 810000,
    "sort": "2"
  },
  {
    "cityCode": 810200,
    "cityName": "九龙",
    "lat": "22.320047",
    "lng": "114.173355",
    "provinceCode": 810000,
    "sort": "1"
  },
  {
    "cityCode": 810300,
    "cityName": "新界",
    "lat": "22.320047",
    "lng": "114.173355",
    "provinceCode": 810000,
    "sort": "3"
  },
  {
    "cityCode": 820100,
    "cityName": "澳门半岛",
    "lat": "22.198751",
    "lng": "113.549133",
    "provinceCode": 820000,
    "sort": "1"
  },
  {
    "cityCode": 820200,
    "cityName": "离岛",
    "lat": "22.198952",
    "lng": "113.549088",
    "provinceCode": 820000,
    "sort": "2"
  }
]